{
    "uCount":[
        {
	        "name":"中央部属高校",
	        "count":7
        },
        {
        	"name":"省属及共建高校",
        	"count":14
        },
        {
        	"name":"市属高校",
        	"count":1
        },
        {
        	"name":"独立院校",
        	"count":60
        }
    ],
    "uMsg":[
       {
       	  "name": "武汉大学",
       	  "coordinates" :[30.544970505701876,114.36279999999996],
       	  "address" : "湖北省武汉市武昌区珞珈山路16号",
       	  "belongsTo" : "985",
       	  "evaluate":[90,80,88,98]
       },
       {
       	  "name":"华中科技大学",
       	  "coordinates":[30.51281917346263,114.41375000000001],
       	  "address":"湖北省武汉市洪山区珞喻路1037号",
       	  "belongsTo":"985",
       	  "evaluate":[93,88,88,98]
       },
       {
       	  "name":"华中师范大学",
       	  "coordinates":[30.51843910934049,114.36060000000003],
       	  "address":"湖北省武汉市洪山区珞喻路152号",
       	  "belongsTo":"211",
       	  "evaluate":[98,66,77,98]
       },
       {
       	  "name":"武汉理工大学(马房山校区)",
       	  "coordinates":[30.52100938526759,114.35282],
       	  "address":"湖北省武汉市洪山区珞狮路122号",
       	  "belongsTo":"211",
       	  "evaluate":[88,80,65,98]
       },
       {
       	  "name":"中国地质大学",
       	  "coordinates":[30.518810986210784,114.40121235847475],
       	  "address":"湖北省武汉市洪山区鲁磨路388号",
       	  "belongsTo":"211",
       	  "evaluate":[75,80,88,98]
       },
       {
       	  "name":"华中农业大学",
       	  "coordinates":[30.474939605381003,114.35804999999999],
       	  "address":"湖北省武汉市洪山区狮子山街1号",
       	  "belongsTo":"211",
       	  "evaluate":[90,66,88,98]
       },
       {
       	  "name":"中南财经政法大学",
       	  "coordinates":[30.477883814090948,114.38967000000002],
       	  "address":"湖北省武汉市洪山区东湖高新技术开发区南湖大道182号",
       	  "belongsTo":"211",
       	  "evaluate":[44,80,88,98]
       },
       {
       	  "name":"武汉科技大学",
       	  "coordinates":[30.62460789597597,114.36929999999997],
       	  "address":"湖北省武汉市青山区和平大道947号",
       	  "belongsTo":"普通本科",
       	  "evaluate":[90,80,55,98]
       },
       {
       	  "name":"中南民族大学",
       	  "coordinates":[30.488209454127922,114.39312999999997],
       	  "address":"湖北省武汉市洪山区民族大道182号",
       	  "belongsTo":"普通本科",
       	  "evaluate":[90,76,88,98]
       },
       {
       	  "name":"湖北大学",
       	  "coordinates":[30.577868430613286,114.33492999999999],
       	  "address":"湖北省武汉市武昌区友谊大道368",
       	  "belongsTo":"普通本科",
       	  "evaluate":[90,82,88,98]
       },
       {
       	  "name":"湖北工业大学",
       	  "coordinates":[30.481013505683308,114.30872708465577],
       	  "address":"湖北省武汉市洪山区武昌南湖李家墩一村1号",
       	  "belongsTo":"普通本科",
       	  "evaluate":[88,80,88,98]
       },
       {
       	  "name":"武汉工程大学",
       	  "coordinates":[30.5031592836547,114.39118999999997],
       	  "address":" 湖北省武汉市洪山区雄楚大街693",
       	  "belongsTo":"普通本科",
       	  "evaluate":[90,96,88,98]
       },
       {
       	  "name":"武汉纺织大学",
       	  "coordinates":[30.376927831588162,114.33814 ],
       	  "address":"湖北省武汉市江夏区阳光大道1号",
       	  "belongsTo":"普通本科",
       	  "evaluate":[90,77,88,98]
       },
       {
       	  "name":"三峡大学",
       	  "coordinates":[30.72207785104009,111.31214],
       	  "address":"湖北省宜昌市西陵区大学路8号",
       	  "belongsTo":"普通本科",
       	  "evaluate":[78,80,88,98]
       },
       {
       	  "name":"湖北经济学院",
       	  "coordinates":[30.41922023983457,114.4359],
       	  "address":"湖北省武汉市江夏区藏龙岛开发区杨桥湖大道8号",
       	  "belongsTo":"普通本科",
       	  "evaluate":[77,80,88,98]
       },
       {
       	  "name":"长江大学",
       	  "coordinates":[30.33324080979002,112.21555],
       	  "address":"湖北省荆州市荆州区南环路1号",
       	  "belongsTo":"普通本科",
       	  "evaluate":[86,80,88,98]
       },
       {
       	  "name":"武汉轻工大学",
       	  "coordinates":[30.63673775710593,114.24011999999998],
       	  "address":"湖北省武汉市东西湖区中环西路特1号",
       	  "belongsTo":"普通本科",
       	  "evaluate":[77,80,88,96]
       },
       {
       	  "name":"江汉大学",
       	  "coordinates":[30.511813188626565,114.1604],
       	  "address":"湖北省武汉市蔡甸区经济技术开发区三角湖路8号",
       	  "belongsTo":"普通本科",
       	  "evaluate":[68,77,88,98]
       }
    ]
}